{
  "type": "FeatureCollection",
  "generator": "overpass-turbo",
  "copyright": "The data included in this document is from www.openstreetmap.org. The data is made available under ODbL.",
  "timestamp": "2025-11-26T19:10:26Z",
  "features": [
    {
      "type": "Feature",
      "properties": {
        "@id": "node/506045937",
        "amenity": "place_of_worship",
        "denomination": "nazarene",
        "name": "Iglesia del Nazareno de Tibás",
        "religion": "christian"
      },
      "geometry": {
        "type": "Point",
        "coordinates": [
          -84.0678177,
          9.9648238
        ]
      },
      "id": "node/506045937"
    },
    {
      "type": "Feature",
      "properties": {
        "@id": "node/506057971",
        "leisure": "park",
        "source": "KG Ground Survey 2015"
      },
      "geometry": {
        "type": "Point",
        "coordinates": [
          -84.0791559,
          9.962302
        ]
      },
      "id": "node/506057971"
    },
    {
      "type": "Feature",
      "properties": {
        "@id": "node/600933121",
        "addr:city": "San Juan de Tibás",
        "brand": "Palí",
        "brand:wikidata": "Q1064887",
        "name": "Palí",
        "shop": "supermarket"
      },
      "geometry": {
        "type": "Point",
        "coordinates": [
          -84.0792844,
          9.9618438
        ]
      },
      "id": "node/600933121"
    },
    {
      "type": "Feature",
      "properties": {
        "@id": "node/654494584",
        "addr:city": "San Juan de Tibás",
        "addr:street": "Avenida 63",
        "amenity": "bank",
        "atm": "yes",
        "branch": "Tibas (este)",
        "brand": "BCR",
        "brand:wikidata": "Q6951632",
        "name": "BCR",
        "official_name": "Banco de Costa Rica",
        "source": "KG Ground Survey 2015"
      },
      "geometry": {
        "type": "Point",
        "coordinates": [
          -84.0696762,
          9.9622727
        ]
      },
      "id": "node/654494584"
    },
    {
      "type": "Feature",
      "properties": {
        "@id": "node/694938445",
        "addr:city": "San Juan de Tibás",
        "name": "Autotronix",
        "shop": "convenience",
        "source": "KG Ground Survey 2015"
      },
      "geometry": {
        "type": "Point",
        "coordinates": [
          -84.0787249,
          9.9630346
        ]
      },
      "id": "node/694938445"
    },
    {
      "type": "Feature",
      "properties": {
        "@id": "node/765181625",
        "amenity": "fuel",
        "name": "Gas Caribe"
      },
      "geometry": {
        "type": "Point",
        "coordinates": [
          -84.0881659,
          9.9548048
        ]
      },
      "id": "node/765181625"
    },
    {
      "type": "Feature",
      "properties": {
        "@id": "node/771593077",
        "addr:city": "San Juan",
        "addr:street": "Calle 4",
        "amenity": "police",
        "name": "Delegación Policial Tibás"
      },
      "geometry": {
        "type": "Point",
        "coordinates": [
          -84.0784023,
          9.9659976
        ]
      },
      "id": "node/771593077"
    },
    {
      "type": "Feature",
      "properties": {
        "@id": "node/781040794",
        "addr:city": "Reinas",
        "name": "Super Tibásico",
        "shop": "convenience"
      },
      "geometry": {
        "type": "Point",
        "coordinates": [
          -84.0915696,
          9.9566465
        ]
      },
      "id": "node/781040794"
    },
    {
      "type": "Feature",
      "properties": {
        "@id": "node/822474349",
        "amenity": "pub",
        "name": "Tragaldabas Tibás",
        "source": "KG Ground Survey 2015"
      },
      "geometry": {
        "type": "Point",
        "coordinates": [
          -84.0630901,
          9.9626131
        ]
      },
      "id": "node/822474349"
    },
    {
      "type": "Feature",
      "properties": {
        "@id": "node/1025688457",
        "amenity": "taxi"
      },
      "geometry": {
        "type": "Point",
        "coordinates": [
          -84.0913239,
          9.9595126
        ]
      },
      "id": "node/1025688457"
    },
    {
      "type": "Feature",
      "properties": {
        "@id": "node/1040689160",
        "addr:city": "San José",
        "addr:street": "Transversal 16",
        "name": "NASA Nacional Automitriz",
        "shop": "car"
      },
      "geometry": {
        "type": "Point",
        "coordinates": [
          -84.0854985,
          9.9450854
        ]
      },
      "id": "node/1040689160"
    },
    {
      "type": "Feature",
      "properties": {
        "@id": "node/1247899092",
        "amenity": "bar",
        "name": "Bar Tico Chino"
      },
      "geometry": {
        "type": "Point",
        "coordinates": [
          -84.0836915,
          9.955368
        ]
      },
      "id": "node/1247899092"
    },
    {
      "type": "Feature",
      "properties": {
        "@id": "node/1254728470",
        "name": "Salón de Belleza Lucile",
        "shop": "hairdresser"
      },
      "geometry": {
        "type": "Point",
        "coordinates": [
          -84.0675215,
          9.9552527
        ]
      },
      "id": "node/1254728470"
    },
    {
      "type": "Feature",
      "properties": {
        "@id": "node/1385449185",
        "amenity": "bar",
        "name": "Kbaña Classic"
      },
      "geometry": {
        "type": "Point",
        "coordinates": [
          -84.0862491,
          9.9658783
        ]
      },
      "id": "node/1385449185"
    },
    {
      "type": "Feature",
      "properties": {
        "@id": "node/1403880073",
        "name": "Panadería Maracaibo",
        "shop": "bakery"
      },
      "geometry": {
        "type": "Point",
        "coordinates": [
          -84.0932543,
          9.9595417
        ]
      },
      "id": "node/1403880073"
    },
    {
      "type": "Feature",
      "properties": {
        "@id": "node/1440009246",
        "addr:city": "San Juan de Tibás",
        "name": "ABC",
        "shop": "books",
        "source": "KG Ground Survey 2015"
      },
      "geometry": {
        "type": "Point",
        "coordinates": [
          -84.077818,
          9.9581602
        ]
      },
      "id": "node/1440009246"
    },
    {
      "type": "Feature",
      "properties": {
        "@id": "node/1440009250",
        "name": "Agencia de Viajes el Catillo Mágico",
        "office": "travel_agent",
        "shop": "travel_agency"
      },
      "geometry": {
        "type": "Point",
        "coordinates": [
          -84.0781453,
          9.959017
        ]
      },
      "id": "node/1440009250"
    },
    {
      "type": "Feature",
      "properties": {
        "@id": "node/1440009271",
        "amenity": "bar",
        "name": "Bar El Ranchito"
      },
      "geometry": {
        "type": "Point",
        "coordinates": [
          -84.0854666,
          9.9617797
        ]
      },
      "id": "node/1440009271"
    },
    {
      "type": "Feature",
      "properties": {
        "@id": "node/1440009279",
        "addr:city": "San Juan de Tibás",
        "amenity": "bar",
        "name": "Bar Quita"
      },
      "geometry": {
        "type": "Point",
        "coordinates": [
          -84.0786267,
          9.9613276
        ]
      },
      "id": "node/1440009279"
    },
    {
      "type": "Feature",
      "properties": {
        "@id": "node/1440009281",
        "addr:city": "San Juan de Tibás",
        "amenity": "bar",
        "name": "Bugalu"
      },
      "geometry": {
        "type": "Point",
        "coordinates": [
          -84.0779127,
          9.9597333
        ]
      },
      "id": "node/1440009281"
    },
    {
      "type": "Feature",
      "properties": {
        "@id": "node/1440009284",
        "addr:city": "San Juan",
        "addr:street": "Avenida 43",
        "amenity": "cafe",
        "name": "Cafe 1947"
      },
      "geometry": {
        "type": "Point",
        "coordinates": [
          -84.0796891,
          9.9535816
        ]
      },
      "id": "node/1440009284"
    },
    {
      "type": "Feature",
      "properties": {
        "@id": "node/1440009297",
        "addr:city": "San Juan de Tibás",
        "addr:street": "Calle 1",
        "name": "Celulares Tibás",
        "shop": "mobile_phone"
      },
      "geometry": {
        "type": "Point",
        "coordinates": [
          -84.0774472,
          9.9591927
        ]
      },
      "id": "node/1440009297"
    },
    {
      "type": "Feature",
      "properties": {
        "@id": "node/1440009321",
        "addr:city": "San Juan de Tibás",
        "amenity": "fast_food",
        "name": "Charlies Pizza"
      },
      "geometry": {
        "type": "Point",
        "coordinates": [
          -84.0759588,
          9.9580593
        ]
      },
      "id": "node/1440009321"
    },
    {
      "type": "Feature",
      "properties": {
        "@id": "node/1440009339",
        "addr:city": "San Juan de Tibás",
        "amenity": "bar",
        "name": "Cordero's Bar"
      },
      "geometry": {
        "type": "Point",
        "coordinates": [
          -84.0845649,
          9.9548043
        ]
      },
      "id": "node/1440009339"
    },
    {
      "type": "Feature",
      "properties": {
        "@id": "node/1440009342",
        "addr:city": "San Juan de Tibás",
        "amenity": "bar",
        "name": "House Pub",
        "source": "KG Ground Survey 2015"
      },
      "geometry": {
        "type": "Point",
        "coordinates": [
          -84.0697915,
          9.962278
        ]
      },
      "id": "node/1440009342"
    },
    {
      "type": "Feature",
      "properties": {
        "@id": "node/1440009356",
        "addr:city": "San Juan de Tibás",
        "name": "Electronorte",
        "shop": "hardware"
      },
      "geometry": {
        "type": "Point",
        "coordinates": [
          -84.0757781,
          9.9576283
        ]
      },
      "id": "node/1440009356"
    },
    {
      "type": "Feature",
      "properties": {
        "@id": "node/1440009362",
        "addr:city": "San Juan de Tibás",
        "addr:street": "Calle Central",
        "amenity": "pharmacy",
        "dispensing": "no",
        "healthcare": "pharmacy",
        "level": "1",
        "name": "Farmacia Fenix",
        "phone": "2241 2717",
        "source": "KG Ground Survey 2014"
      },
      "geometry": {
        "type": "Point",
        "coordinates": [
          -84.0782405,
          9.9610467
        ]
      },
      "id": "node/1440009362"
    },
    {
      "type": "Feature",
      "properties": {
        "@id": "node/1440009364",
        "addr:city": "San Juan de Tibás",
        "amenity": "pharmacy",
        "dispensing": "yes",
        "name": "Farmacia Tibas"
      },
      "geometry": {
        "type": "Point",
        "coordinates": [
          -84.0787989,
          9.961336
        ]
      },
      "id": "node/1440009364"
    },
    {
      "type": "Feature",
      "properties": {
        "@id": "node/1440009380",
        "addr:city": "San Juan de Tibás",
        "leisure": "sports_centre",
        "name": "Gimnasio Anthrax"
      },
      "geometry": {
        "type": "Point",
        "coordinates": [
          -84.0834386,
          9.9630674
        ]
      },
      "id": "node/1440009380"
    },
    {
      "type": "Feature",
      "properties": {
        "@id": "node/1440009383",
        "addr:city": "San Juan de Tibás",
        "addr:street": "Avenida 63",
        "leisure": "sports_centre",
        "level": "1",
        "name": "Gimnasio Empire",
        "source": "KG Ground Survey 2014"
      },
      "geometry": {
        "type": "Point",
        "coordinates": [
          -84.0705056,
          9.962335
        ]
      },
      "id": "node/1440009383"
    },
    {
      "type": "Feature",
      "properties": {
        "@id": "node/1440009391",
        "leisure": "sports_centre",
        "name": "Gimnasio Kache",
        "sport": "multi"
      },
      "geometry": {
        "type": "Point",
        "coordinates": [
          -84.0659164,
          9.9570737
        ]
      },
      "id": "node/1440009391"
    },
    {
      "type": "Feature",
      "properties": {
        "@id": "node/1440009409",
        "addr:city": "San Juan de Tibás",
        "amenity": "bar",
        "name": "La Casona"
      },
      "geometry": {
        "type": "Point",
        "coordinates": [
          -84.0772425,
          9.9626265
        ]
      },
      "id": "node/1440009409"
    },
    {
      "type": "Feature",
      "properties": {
        "@id": "node/1440009419",
        "addr:city": "San Juan de Tibás",
        "name": "Librería Atai",
        "shop": "books"
      },
      "geometry": {
        "type": "Point",
        "coordinates": [
          -84.0778891,
          9.9606586
        ]
      },
      "id": "node/1440009419"
    },
    {
      "type": "Feature",
      "properties": {
        "@id": "node/1440009421",
        "addr:city": "San Juan de Tibás",
        "name": "Librería Tibas",
        "shop": "books"
      },
      "geometry": {
        "type": "Point",
        "coordinates": [
          -84.078887,
          9.9606619
        ]
      },
      "id": "node/1440009421"
    },
    {
      "type": "Feature",
      "properties": {
        "@id": "node/1440009423",
        "addr:city": "San Juan de Tibás",
        "name": "Licorera el Cruce",
        "shop": "alcohol"
      },
      "geometry": {
        "type": "Point",
        "coordinates": [
          -84.0787155,
          9.9542016
        ]
      },
      "id": "node/1440009423"
    },
    {
      "type": "Feature",
      "properties": {
        "@id": "node/1440009431",
        "addr:city": "San Juan",
        "amenity": "restaurant",
        "name": "Mayra Pupusería"
      },
      "geometry": {
        "type": "Point",
        "coordinates": [
          -84.079147,
          9.9589548
        ]
      },
      "id": "node/1440009431"
    },
    {
      "type": "Feature",
      "properties": {
        "@id": "node/1440009460",
        "addr:city": "San Juan de Tibás",
        "name": "Peluqueria Melvin",
        "shop": "hairdresser"
      },
      "geometry": {
        "type": "Point",
        "coordinates": [
          -84.0780922,
          9.9597165
        ]
      },
      "id": "node/1440009460"
    },
    {
      "type": "Feature",
      "properties": {
        "@id": "node/1440009461",
        "addr:city": "San Juan de Tibás",
        "name": "Peluqueria Tribilin",
        "shop": "hairdresser"
      },
      "geometry": {
        "type": "Point",
        "coordinates": [
          -84.0784069,
          9.9597843
        ]
      },
      "id": "node/1440009461"
    },
    {
      "type": "Feature",
      "properties": {
        "@id": "node/1440009463",
        "addr:city": "San Juan de Tibás",
        "name": "Pinturas Sur",
        "shop": "paint"
      },
      "geometry": {
        "type": "Point",
        "coordinates": [
          -84.0697371,
          9.9622816
        ]
      },
      "id": "node/1440009463"
    },
    {
      "type": "Feature",
      "properties": {
        "@id": "node/1440009493",
        "amenity": "bar",
        "name": "Rincon Poblano"
      },
      "geometry": {
        "type": "Point",
        "coordinates": [
          -84.0855467,
          9.9588462
        ]
      },
      "id": "node/1440009493"
    },
    {
      "type": "Feature",
      "properties": {
        "@id": "node/1440009496",
        "addr:city": "San Juan de Tibás",
        "amenity": "bar",
        "name": "Sandra y sus momentos",
        "source": "KG Ground Survey 2015"
      },
      "geometry": {
        "type": "Point",
        "coordinates": [
          -84.0699169,
          9.9622702
        ]
      },
      "id": "node/1440009496"
    },
    {
      "type": "Feature",
      "properties": {
        "@id": "node/1440009498",
        "amenity": "restaurant",
        "name": "Soda El Almendro"
      },
      "geometry": {
        "type": "Point",
        "coordinates": [
          -84.0851924,
          9.9589726
        ]
      },
      "id": "node/1440009498"
    },
    {
      "type": "Feature",
      "properties": {
        "@id": "node/1440009501",
        "amenity": "food_court",
        "name": "Soda La Poblanita"
      },
      "geometry": {
        "type": "Point",
        "coordinates": [
          -84.0855709,
          9.9589571
        ]
      },
      "id": "node/1440009501"
    },
    {
      "type": "Feature",
      "properties": {
        "@id": "node/1440009504",
        "amenity": "restaurant",
        "name": "Soda Shalom"
      },
      "geometry": {
        "type": "Point",
        "coordinates": [
          -84.0644994,
          9.9598686
        ]
      },
      "id": "node/1440009504"
    },
    {
      "type": "Feature",
      "properties": {
        "@id": "node/1440009514",
        "addr:city": "San Juan de Tibás",
        "amenity": "restaurant",
        "name": "Soda Tikal"
      },
      "geometry": {
        "type": "Point",
        "coordinates": [
          -84.0793026,
          9.9620376
        ]
      },
      "id": "node/1440009514"
    },
    {
      "type": "Feature",
      "properties": {
        "@id": "node/1440009553",
        "name": "Vehiculos de Costa Rica",
        "shop": "car"
      },
      "geometry": {
        "type": "Point",
        "coordinates": [
          -84.0853563,
          9.9557448
        ]
      },
      "id": "node/1440009553"
    },
    {
      "type": "Feature",
      "properties": {
        "@id": "node/1440009555",
        "amenity": "bar",
        "name": "Vesubio"
      },
      "geometry": {
        "type": "Point",
        "coordinates": [
          -84.0783735,
          9.953985
        ]
      },
      "id": "node/1440009555"
    },
    {
      "type": "Feature",
      "properties": {
        "@id": "node/1440009558",
        "name": "Vivero La Bonita",
        "shop": "garden_centre"
      },
      "geometry": {
        "type": "Point",
        "coordinates": [
          -84.0662717,
          9.9565845
        ]
      },
      "id": "node/1440009558"
    },
    {
      "type": "Feature",
      "properties": {
        "@id": "node/1440009594",
        "amenity": "bus_station"
      },
      "geometry": {
        "type": "Point",
        "coordinates": [
          -84.0785151,
          9.9524452
        ]
      },
      "id": "node/1440009594"
    },
    {
      "type": "Feature",
      "properties": {
        "@id": "node/1440009646",
        "amenity": "bus_station",
        "bus": "yes",
        "public_transport": "station",
        "source": "KG Ground Survey 2015"
      },
      "geometry": {
        "type": "Point",
        "coordinates": [
          -84.0786713,
          9.9534966
        ]
      },
      "id": "node/1440009646"
    },
    {
      "type": "Feature",
      "properties": {
        "@id": "node/1440009859",
        "addr:city": "San Juan de Tibás",
        "amenity": "taxi",
        "source": "KG Ground Survey 2015"
      },
      "geometry": {
        "type": "Point",
        "coordinates": [
          -84.0779491,
          9.9614018
        ]
      },
      "id": "node/1440009859"
    },
    {
      "type": "Feature",
      "properties": {
        "@id": "node/1440009863",
        "amenity": "bus_station",
        "bus": "yes",
        "public_transport": "station",
        "source": "KG Ground Survey 2015"
      },
      "geometry": {
        "type": "Point",
        "coordinates": [
          -84.0780736,
          9.9612012
        ]
      },
      "id": "node/1440009863"
    },
    {
      "type": "Feature",
      "properties": {
        "@id": "node/1440009869",
        "addr:city": "San Juan de Tibás",
        "amenity": "atm",
        "brand": "Banco Nacional de Costa Rica",
        "brand:wikidata": "Q2917708",
        "name": "Banco Nacional",
        "official_name": "Banco Nacional de Costa Rica",
        "operator": "Banco Nacional de Costa Rica",
        "operator:wikidata": "Q2917708",
        "short_name": "BNCR"
      },
      "geometry": {
        "type": "Point",
        "coordinates": [
          -84.06502,
          9.9617949
        ]
      },
      "id": "node/1440009869"
    },
    {
      "type": "Feature",
      "properties": {
        "@id": "node/1440009889",
        "addr:city": "San Juan de Tibás",
        "amenity": "pharmacy",
        "dispensing": "Farmacia Sucre",
        "source": "KG Ground Survey 2015"
      },
      "geometry": {
        "type": "Point",
        "coordinates": [
          -84.0792838,
          9.962113
        ]
      },
      "id": "node/1440009889"
    },
    {
      "type": "Feature",
      "properties": {
        "@id": "node/1440009902",
        "amenity": "parking",
        "parking": "surface"
      },
      "geometry": {
        "type": "Point",
        "coordinates": [
          -84.0777265,
          9.9624419
        ]
      },
      "id": "node/1440009902"
    },
    {
      "type": "Feature",
      "properties": {
        "@id": "node/1983572882",
        "name": "Motomás Tibás",
        "shop": "motorcycle",
        "website": "https://www.motomascr.com/"
      },
      "geometry": {
        "type": "Point",
        "coordinates": [
          -84.0853257,
          9.9566841
        ]
      },
      "id": "node/1983572882"
    },
    {
      "type": "Feature",
      "properties": {
        "@id": "node/2025516110",
        "name": "Taller Autopia",
        "shop": "car_repair"
      },
      "geometry": {
        "type": "Point",
        "coordinates": [
          -84.0766391,
          9.9629781
        ]
      },
      "id": "node/2025516110"
    },
    {
      "type": "Feature",
      "properties": {
        "@id": "node/2050765814",
        "amenity": "fast_food",
        "name": "Soda La Cusqueña"
      },
      "geometry": {
        "type": "Point",
        "coordinates": [
          -84.0658469,
          9.9632728
        ]
      },
      "id": "node/2050765814"
    },
    {
      "type": "Feature",
      "properties": {
        "@id": "node/2227150075",
        "addr:city": "San Juan de Tibás",
        "amenity": "marketplace",
        "designation": "Almacén de Electrodomésticos",
        "name": "El Gallo mas Gallo"
      },
      "geometry": {
        "type": "Point",
        "coordinates": [
          -84.0783154,
          9.9600188
        ]
      },
      "id": "node/2227150075"
    },
    {
      "type": "Feature",
      "properties": {
        "@id": "node/2402804718",
        "name": "Deposito y Materiales Tomy",
        "shop": "doityourself"
      },
      "geometry": {
        "type": "Point",
        "coordinates": [
          -84.0750111,
          9.9632875
        ]
      },
      "id": "node/2402804718"
    },
    {
      "type": "Feature",
      "properties": {
        "@id": "node/2452281057",
        "leisure": "sports_centre",
        "name": "Academia Natación Delfines",
        "sport": "swimming"
      },
      "geometry": {
        "type": "Point",
        "coordinates": [
          -84.0710466,
          9.9633373
        ]
      },
      "id": "node/2452281057"
    },
    {
      "type": "Feature",
      "properties": {
        "@id": "node/2481754691",
        "shop": "bakery"
      },
      "geometry": {
        "type": "Point",
        "coordinates": [
          -84.0825174,
          9.9642824
        ]
      },
      "id": "node/2481754691"
    },
    {
      "type": "Feature",
      "properties": {
        "@id": "node/2481754807",
        "shop": "convenience"
      },
      "geometry": {
        "type": "Point",
        "coordinates": [
          -84.0827374,
          9.9642322
        ]
      },
      "id": "node/2481754807"
    },
    {
      "type": "Feature",
      "properties": {
        "@id": "node/3409351024",
        "amenity": "restaurant",
        "name": "La Cazuela"
      },
      "geometry": {
        "type": "Point",
        "coordinates": [
          -84.0772533,
          9.9598687
        ]
      },
      "id": "node/3409351024"
    },
    {
      "type": "Feature",
      "properties": {
        "@id": "node/3674212232",
        "addr:city": "León XIII",
        "addr:street": "Avenida 49",
        "amenity": "place_of_worship",
        "denomination": "catholic",
        "name": "Iglesia de Santa Eduviges",
        "religion": "christian"
      },
      "geometry": {
        "type": "Point",
        "coordinates": [
          -84.1025244,
          9.9588317
        ]
      },
      "id": "node/3674212232"
    },
    {
      "type": "Feature",
      "properties": {
        "@id": "node/3829992659",
        "addr:city": "San Juan de Tibás",
        "amenity": "pharmacy",
        "healthcare": "pharmacy",
        "name": "Fishel",
        "source": "KG Ground Survey 2015"
      },
      "geometry": {
        "type": "Point",
        "coordinates": [
          -84.0774371,
          9.9581417
        ]
      },
      "id": "node/3829992659"
    },
    {
      "type": "Feature",
      "properties": {
        "@id": "node/3830020211",
        "addr:city": "San Juan de Tibás",
        "addr:street": "Calle 1",
        "shop": "lottery",
        "source": "KG Ground Survey 2014"
      },
      "geometry": {
        "type": "Point",
        "coordinates": [
          -84.0776213,
          9.959009
        ]
      },
      "id": "node/3830020211"
    },
    {
      "type": "Feature",
      "properties": {
        "@id": "node/3830025261",
        "addr:city": "San Juan de Tibás",
        "addr:street": "Calle 1",
        "name": "Agata",
        "shop": "yes",
        "source": "KG Ground Survey 2014"
      },
      "geometry": {
        "type": "Point",
        "coordinates": [
          -84.0774497,
          9.959125
        ]
      },
      "id": "node/3830025261"
    },
    {
      "type": "Feature",
      "properties": {
        "@id": "node/3830025262",
        "addr:city": "San Juan de Tibás",
        "addr:street": "Calle 1",
        "name": "Antares",
        "shop": "boutique",
        "source": "KG Ground Survey 2014"
      },
      "geometry": {
        "type": "Point",
        "coordinates": [
          -84.0774445,
          9.9592442
        ]
      },
      "id": "node/3830025262"
    },
    {
      "type": "Feature",
      "properties": {
        "@id": "node/3830025975",
        "addr:city": "San Juan de Tibás",
        "addr:street": "Calle 1",
        "amenity": "clinic",
        "building:levels": "2",
        "healthcare": "clinic",
        "name": "Consultorio Medico",
        "source": "KG Ground Survey 2014"
      },
      "geometry": {
        "type": "Point",
        "coordinates": [
          -84.0774297,
          9.9595279
        ]
      },
      "id": "node/3830025975"
    },
    {
      "type": "Feature",
      "properties": {
        "@id": "node/3831195875",
        "addr:city": "San Juan de Tibás",
        "addr:street": "Calle Central",
        "amenity": "dentist",
        "source": "KG Ground Survey 2014"
      },
      "geometry": {
        "type": "Point",
        "coordinates": [
          -84.0782479,
          9.9611323
        ]
      },
      "id": "node/3831195875"
    },
    {
      "type": "Feature",
      "properties": {
        "@id": "node/3831262967",
        "addr:city": "San Juan de Tibás",
        "addr:street": "Calle Central",
        "leisure": "sports_centre",
        "level": "2",
        "name": "Tae Kwan Do Yin-Yang",
        "source": "KG Ground Survey 2014"
      },
      "geometry": {
        "type": "Point",
        "coordinates": [
          -84.0785485,
          9.9607114
        ]
      },
      "id": "node/3831262967"
    },
    {
      "type": "Feature",
      "properties": {
        "@id": "node/3831262968",
        "addr:city": "San Juan de Tibás",
        "addr:street": "Calle Central",
        "level": "1",
        "name": "Randy's",
        "shop": "shoes",
        "source": "KG Ground Survey 2014"
      },
      "geometry": {
        "type": "Point",
        "coordinates": [
          -84.0784704,
          9.9607114
        ]
      },
      "id": "node/3831262968"
    },
    {
      "type": "Feature",
      "properties": {
        "@id": "node/3831284868",
        "addr:city": "San Juan de Tibás",
        "addr:street": "Calle Central",
        "name": "Video Club",
        "shop": "video",
        "source": "KG Ground Survey 2014"
      },
      "geometry": {
        "type": "Point",
        "coordinates": [
          -84.0782877,
          9.9599813
        ]
      },
      "id": "node/3831284868"
    },
    {
      "type": "Feature",
      "properties": {
        "@id": "node/3831496031",
        "addr:city": "San Juan de Tibás",
        "addr:street": "Avenida 63",
        "name": "Motul",
        "shop": "car_parts",
        "source": "KG Ground Survey 2014"
      },
      "geometry": {
        "type": "Point",
        "coordinates": [
          -84.0761719,
          9.962174
        ]
      },
      "id": "node/3831496031"
    },
    {
      "type": "Feature",
      "properties": {
        "@id": "node/3831496032",
        "addr:city": "San Juan de Tibás",
        "addr:street": "Avenida 63",
        "name": "Bazar Fonda",
        "shop": "yes",
        "source": "KG Ground Survey 2014"
      },
      "geometry": {
        "type": "Point",
        "coordinates": [
          -84.0761271,
          9.9621753
        ]
      },
      "id": "node/3831496032"
    },
    {
      "type": "Feature",
      "properties": {
        "@id": "node/3831496033",
        "addr:city": "San Juan de Tibás",
        "addr:street": "Avenida 63",
        "name": "Elencia Salón",
        "phone": "2241 4078",
        "shop": "beauty",
        "source": "KG Ground Survey 2014"
      },
      "geometry": {
        "type": "Point",
        "coordinates": [
          -84.0761298,
          9.9621339
        ]
      },
      "id": "node/3831496033"
    },
    {
      "type": "Feature",
      "properties": {
        "@id": "node/3831505598",
        "addr:city": "San Juan de Tibás",
        "addr:street": "Avenida 63",
        "amenity": "clinic",
        "healthcare": "clinic",
        "name": "Centro Medico Tibás",
        "source": "KG Ground Survey 2014"
      },
      "geometry": {
        "type": "Point",
        "coordinates": [
          -84.0759339,
          9.9621399
        ]
      },
      "id": "node/3831505598"
    },
    {
      "type": "Feature",
      "properties": {
        "@id": "node/3831651248",
        "addr:city": "San Juan de Tibás",
        "addr:street": "Avenida 63",
        "level": "1",
        "name": "ChilAngos",
        "shop": "yes",
        "source": "KG Ground Survey 2014"
      },
      "geometry": {
        "type": "Point",
        "coordinates": [
          -84.0706234,
          9.9622683
        ]
      },
      "id": "node/3831651248"
    },
    {
      "type": "Feature",
      "properties": {
        "@id": "node/3831651249",
        "addr:city": "San Juan de Tibás",
        "addr:street": "Avenida 63",
        "level": "1",
        "name": "Curves",
        "shop": "health",
        "source": "KG Ground Survey 2014"
      },
      "geometry": {
        "type": "Point",
        "coordinates": [
          -84.070343,
          9.9622649
        ]
      },
      "id": "node/3831651249"
    },
    {
      "type": "Feature",
      "properties": {
        "@id": "node/3831651250",
        "addr:city": "San Juan de Tibás",
        "addr:street": "Avenida 63",
        "amenity": "dojo",
        "level": "1",
        "source": "KG Ground Survey 2014"
      },
      "geometry": {
        "type": "Point",
        "coordinates": [
          -84.0702703,
          9.9622615
        ]
      },
      "id": "node/3831651250"
    },
    {
      "type": "Feature",
      "properties": {
        "@id": "node/3831651251",
        "addr:city": "San Juan de Tibás",
        "addr:street": "Avenida 63",
        "level": "1",
        "name": "Krimer & Boutique",
        "shop": "clothes",
        "source": "KG Ground Survey 2014"
      },
      "geometry": {
        "type": "Point",
        "coordinates": [
          -84.0704721,
          9.9622755
        ]
      },
      "id": "node/3831651251"
    },
    {
      "type": "Feature",
      "properties": {
        "@id": "node/3831651252",
        "addr:city": "San Juan de Tibás",
        "addr:street": "Avenida 63",
        "level": "2",
        "name": "eSbeltic",
        "shop": "yes",
        "source": "KG Ground Survey 2014"
      },
      "geometry": {
        "type": "Point",
        "coordinates": [
          -84.0701491,
          9.9623263
        ]
      },
      "id": "node/3831651252"
    },
    {
      "type": "Feature",
      "properties": {
        "@id": "node/3831651253",
        "addr:city": "San Juan de Tibás",
        "addr:street": "Avenida 63",
        "amenity": "pharmacy",
        "healthcare": "pharmacy",
        "name": "Farmacia El Puente",
        "source": "KG Ground Survey 2014"
      },
      "geometry": {
        "type": "Point",
        "coordinates": [
          -84.0698694,
          9.9622674
        ]
      },
      "id": "node/3831651253"
    },
    {
      "type": "Feature",
      "properties": {
        "@id": "node/3831686563",
        "addr:city": "San Juan de Tibás",
        "addr:street": "Avenida 63",
        "amenity": "pharmacy",
        "healthcare": "pharmacy",
        "name": "Doctor & Doctor Pharmacy",
        "source": "KG Ground Survey 2014"
      },
      "geometry": {
        "type": "Point",
        "coordinates": [
          -84.0693215,
          9.9616717
        ]
      },
      "id": "node/3831686563"
    },
    {
      "type": "Feature",
      "properties": {
        "@id": "node/3869391248",
        "name": "3R Tibas",
        "shop": "car_repair"
      },
      "geometry": {
        "type": "Point",
        "coordinates": [
          -84.0774287,
          9.9573703
        ]
      },
      "id": "node/3869391248"
    },
    {
      "type": "Feature",
      "properties": {
        "@id": "node/3917276717",
        "addr:city": "San Juan de Tibás",
        "addr:street": "Avenida 55",
        "amenity": "dentist",
        "name": "Clínica Dental",
        "phone": "2235 1203",
        "source": "KG Ground Survey 2015"
      },
      "geometry": {
        "type": "Point",
        "coordinates": [
          -84.077628,
          9.9589376
        ]
      },
      "id": "node/3917276717"
    },
    {
      "type": "Feature",
      "properties": {
        "@id": "node/3917276718",
        "addr:city": "San Juan de Tibás",
        "addr:street": "Avenida 55",
        "name": "Joyeria San Juan",
        "phone": "2235 2712",
        "shop": "jewelry",
        "source": "KG Ground Survey 2015"
      },
      "geometry": {
        "type": "Point",
        "coordinates": [
          -84.0776722,
          9.9589178
        ]
      },
      "id": "node/3917276718"
    },
    {
      "type": "Feature",
      "properties": {
        "@id": "node/3917276719",
        "addr:city": "San Juan de Tibás",
        "addr:street": "Avenida 55",
        "amenity": "bar",
        "name": "El Gentleman Bar",
        "source": "KG Ground Survey 2015"
      },
      "geometry": {
        "type": "Point",
        "coordinates": [
          -84.0776333,
          9.9589125
        ]
      },
      "id": "node/3917276719"
    },
    {
      "type": "Feature",
      "properties": {
        "@id": "node/3917276724",
        "addr:city": "San Juan de Tibás",
        "addr:street": "Calle 1",
        "amenity": "bar",
        "name": "Bar Maidens",
        "source": "KG Ground Survey 2015"
      },
      "geometry": {
        "type": "Point",
        "coordinates": [
          -84.077632,
          9.9589918
        ]
      },
      "id": "node/3917276724"
    },
    {
      "type": "Feature",
      "properties": {
        "@id": "node/3917330124",
        "addr:city": "San Juan de Tibás",
        "addr:street": "Calle 1",
        "name": "El Jazmin",
        "phone": "2240 6702",
        "shop": "florist",
        "source": "KG Ground Survey 2015"
      },
      "geometry": {
        "type": "Point",
        "coordinates": [
          -84.0776025,
          9.9595677
        ]
      },
      "id": "node/3917330124"
    },
    {
      "type": "Feature",
      "properties": {
        "@id": "node/3917330125",
        "addr:city": "San Juan de Tibás",
        "addr:street": "Calle 1",
        "name": "Ropa Intima Colombiana",
        "shop": "clothes",
        "source": "KG Ground Survey 2015"
      },
      "geometry": {
        "type": "Point",
        "coordinates": [
          -84.0775998,
          9.9594937
        ]
      },
      "id": "node/3917330125"
    },
    {
      "type": "Feature",
      "properties": {
        "@id": "node/3917330126",
        "addr:city": "San Juan de Tibás",
        "addr:street": "Avenida 57",
        "name": "Petalos",
        "phone": "2240 6052",
        "shop": "florist",
        "source": "KG Ground Survey 2015"
      },
      "geometry": {
        "type": "Point",
        "coordinates": [
          -84.0776333,
          9.9596113
        ]
      },
      "id": "node/3917330126"
    },
    {
      "type": "Feature",
      "properties": {
        "@id": "node/3919279857",
        "addr:city": "San Juan de Tibás",
        "addr:street": "Calle 1",
        "name": "Party & Gift Decoraciones",
        "phone": "2236 6863",
        "shop": "yes",
        "source": "KG Ground Survey 2015"
      },
      "geometry": {
        "type": "Point",
        "coordinates": [
          -84.077427,
          9.9595966
        ]
      },
      "id": "node/3919279857"
    },
    {
      "type": "Feature",
      "properties": {
        "@id": "node/3919279862",
        "addr:city": "San Juan de Tibás",
        "addr:street": "Calle 1",
        "name": "Artesania El Barrilito",
        "shop": "yes",
        "source": "KG Ground Survey 2015"
      },
      "geometry": {
        "type": "Point",
        "coordinates": [
          -84.0773855,
          9.9604142
        ]
      },
      "id": "node/3919279862"
    },
    {
      "type": "Feature",
      "properties": {
        "@id": "node/3919279868",
        "addr:city": "San Juan de Tibás",
        "addr:street": "Calle 1",
        "name": "La Casita Natural",
        "phone": "2241 2133",
        "shop": "yes",
        "source": "KG Ground Survey 2015"
      },
      "geometry": {
        "type": "Point",
        "coordinates": [
          -84.0773251,
          9.9617866
        ]
      },
      "id": "node/3919279868"
    },
    {
      "type": "Feature",
      "properties": {
        "@id": "node/3919279869",
        "addr:city": "San Juan de Tibás",
        "addr:street": "Calle 1",
        "name": "Sala de Belleza Valentina",
        "phone": "2241 6142",
        "shop": "hairdresser",
        "source": "KG Ground Survey 2015"
      },
      "geometry": {
        "type": "Point",
        "coordinates": [
          -84.0773358,
          9.9617338
        ]
      },
      "id": "node/3919279869"
    },
    {
      "type": "Feature",
      "properties": {
        "@id": "node/3919279870",
        "addr:city": "San Juan de Tibás",
        "addr:street": "Calle 1",
        "amenity": "language_school",
        "source": "KG Ground Survey 2015"
      },
      "geometry": {
        "type": "Point",
        "coordinates": [
          -84.0772742,
          9.9617496
        ]
      },
      "id": "node/3919279870"
    },
    {
      "type": "Feature",
      "properties": {
        "@id": "node/3919299330",
        "addr:city": "San Juan de Tibás",
        "addr:street": "Avenida 65",
        "name": "Carnicería",
        "shop": "butcher",
        "source": "KG Ground Survey 2015"
      },
      "geometry": {
        "type": "Point",
        "coordinates": [
          -84.0801414,
          9.9631629
        ]
      },
      "id": "node/3919299330"
    },
    {
      "type": "Feature",
      "properties": {
        "@id": "node/3919299331",
        "addr:city": "San Juan de Tibás",
        "addr:street": "Avenida 65",
        "name": "Centro de Carnes El Tibaseño",
        "shop": "butcher",
        "source": "KG Ground Survey 2015"
      },
      "geometry": {
        "type": "Point",
        "coordinates": [
          -84.0801951,
          9.9631748
        ]
      },
      "id": "node/3919299331"
    },
    {
      "type": "Feature",
      "properties": {
        "@id": "node/3919299332",
        "addr:city": "San Juan de Tibás",
        "addr:street": "Avenida 65",
        "amenity": "clinic",
        "healthcare": "clinic",
        "name": "Centro Radiografico del Norte",
        "source": "KG Ground Survey 2015"
      },
      "geometry": {
        "type": "Point",
        "coordinates": [
          -84.0802326,
          9.9631735
        ]
      },
      "id": "node/3919299332"
    },
    {
      "type": "Feature",
      "properties": {
        "@id": "node/3919299333",
        "addr:city": "San Juan de Tibás",
        "addr:street": "Avenida 65",
        "name": "Alquileres Sol y Luna",
        "shop": "yes",
        "source": "KG Ground Survey 2015"
      },
      "geometry": {
        "type": "Point",
        "coordinates": [
          -84.0802755,
          9.9631748
        ]
      },
      "id": "node/3919299333"
    },
    {
      "type": "Feature",
      "properties": {
        "@id": "node/3940567907",
        "addr:city": "San Juan de Tibás",
        "addr:street": "Avenida 63",
        "name": "Zule Boutique",
        "shop": "boutique",
        "source": "KG Ground Survey 2015"
      },
      "geometry": {
        "type": "Point",
        "coordinates": [
          -84.0787191,
          9.9624854
        ]
      },
      "id": "node/3940567907"
    },
    {
      "type": "Feature",
      "properties": {
        "@id": "node/3940567908",
        "addr:city": "San Juan de Tibás",
        "addr:street": "Avenida 63",
        "name": "Salón Arandano Estetica",
        "shop": "hairdresser",
        "source": "KG Ground Survey 2015"
      },
      "geometry": {
        "type": "Point",
        "coordinates": [
          -84.07864,
          9.9624914
        ]
      },
      "id": "node/3940567908"
    },
    {
      "type": "Feature",
      "properties": {
        "@id": "node/3940650820",
        "addr:city": "San Juan de Tibás",
        "addr:street": "Avenida 63",
        "name": "Marcas",
        "shop": "yes",
        "source": "KG Ground Survey 2015"
      },
      "geometry": {
        "type": "Point",
        "coordinates": [
          -84.0706826,
          9.9622782
        ]
      },
      "id": "node/3940650820"
    },
    {
      "type": "Feature",
      "properties": {
        "@id": "node/3940650821",
        "amenity": "restaurant",
        "name": "Fonta Pizza",
        "source": "KG Ground Survey 2015"
      },
      "geometry": {
        "type": "Point",
        "coordinates": [
          -84.070409,
          9.9622782
        ]
      },
      "id": "node/3940650821"
    },
    {
      "type": "Feature",
      "properties": {
        "@id": "node/3940650822",
        "name": "Cris",
        "shop": "yes",
        "source": "KG Ground Survey 2015"
      },
      "geometry": {
        "type": "Point",
        "coordinates": [
          -84.0702159,
          9.9622729
        ]
      },
      "id": "node/3940650822"
    },
    {
      "type": "Feature",
      "properties": {
        "@id": "node/3940650823",
        "addr:city": "San Juan de Tibás",
        "addr:street": "Avenida 63",
        "name": "Sur Color",
        "shop": "paint",
        "source": "KG Ground Survey 2015"
      },
      "geometry": {
        "type": "Point",
        "coordinates": [
          -84.0700563,
          9.9622742
        ]
      },
      "id": "node/3940650823"
    },
    {
      "type": "Feature",
      "properties": {
        "@id": "node/3940650824",
        "addr:city": "San Juan de Tibás",
        "addr:street": "Avenida 63",
        "name": "Nutri Cambio",
        "shop": "yes",
        "source": "KG Ground Survey 2015"
      },
      "geometry": {
        "type": "Point",
        "coordinates": [
          -84.0700228,
          9.962335
        ]
      },
      "id": "node/3940650824"
    },
    {
      "type": "Feature",
      "properties": {
        "@id": "node/3940650825",
        "addr:city": "San Juan de Tibás",
        "addr:street": "Avenida 63",
        "name": "Video Planet Movies",
        "shop": "video",
        "source": "KG Ground Survey 2015"
      },
      "geometry": {
        "type": "Point",
        "coordinates": [
          -84.0699786,
          9.9622821
        ]
      },
      "id": "node/3940650825"
    },
    {
      "type": "Feature",
      "properties": {
        "@id": "node/3940650826",
        "addr:city": "San Juan de Tibás",
        "addr:street": "Avenida 63",
        "name": "Kazzia Salón",
        "shop": "hairdresser",
        "source": "KG Ground Survey 2015"
      },
      "geometry": {
        "type": "Point",
        "coordinates": [
          -84.0698793,
          9.9623363
        ]
      },
      "id": "node/3940650826"
    },
    {
      "type": "Feature",
      "properties": {
        "@id": "node/3974258136",
        "addr:city": "San Juan de Tibás",
        "addr:street": "Avenida 63",
        "amenity": "dentist",
        "source": "KG Ground Survey 2015"
      },
      "geometry": {
        "type": "Point",
        "coordinates": [
          -84.0839845,
          9.9623842
        ]
      },
      "id": "node/3974258136"
    },
    {
      "type": "Feature",
      "properties": {
        "@id": "node/3974307766",
        "amenity": "pharmacy",
        "source": "KG Ground Survey 2015"
      },
      "geometry": {
        "type": "Point",
        "coordinates": [
          -84.065024,
          9.9616855
        ]
      },
      "id": "node/3974307766"
    },
    {
      "type": "Feature",
      "properties": {
        "@id": "node/4446999493",
        "addr:housenumber": "32G",
        "addr:postcode": "1000",
        "amenity": "car_wash",
        "email": "worldclean14@gmail.com",
        "internet_access": "wlan",
        "name": "World clean",
        "name:es": "World clean",
        "opening_hours": "Mo-Sa 07:30-17:30; Su 08:00-14:00",
        "phone": "70887915"
      },
      "geometry": {
        "type": "Point",
        "coordinates": [
          -84.0917332,
          9.9613524
        ]
      },
      "id": "node/4446999493"
    },
    {
      "type": "Feature",
      "properties": {
        "@id": "node/4524285989",
        "amenity": "place_of_worship",
        "name": "Iglesia Ebenezer - Cristo Roca de Ayuda",
        "name:en": "Ebenezer Church",
        "name:es": "Iglesia Ebenezer - Cristo Roca de Ayuda"
      },
      "geometry": {
        "type": "Point",
        "coordinates": [
          -84.0681734,
          9.9636522
        ]
      },
      "id": "node/4524285989"
    },
    {
      "type": "Feature",
      "properties": {
        "@id": "node/4524319033",
        "amenity": "atm",
        "branch": "Anselmo Llorente",
        "brand": "BAC Credomatic",
        "brand:wikidata": "Q5715556",
        "name": "Bac Credomatic",
        "operator": "BAC Credomatic",
        "operator:wikidata": "Q5715556"
      },
      "geometry": {
        "type": "Point",
        "coordinates": [
          -84.0690116,
          9.9619077
        ]
      },
      "id": "node/4524319033"
    },
    {
      "type": "Feature",
      "properties": {
        "@id": "node/4621244486",
        "addr:city": "San Juan de Tibás",
        "amenity": "restaurant",
        "contact:facebook": "https://www.facebook.com/kungfucuisinecr/",
        "contact:phone": "+506 2236 2353",
        "cuisine": "sushi",
        "delivery": "yes",
        "diet:vegan": "only",
        "name": "Kung Fu Cuisine",
        "opening_hours": "Mo-Sa 12:00-22:00; Su 11:30-19:30"
      },
      "geometry": {
        "type": "Point",
        "coordinates": [
          -84.0704094,
          9.9622429
        ]
      },
      "id": "node/4621244486"
    },
    {
      "type": "Feature",
      "properties": {
        "@id": "node/4621300234",
        "amenity": "restaurant",
        "contact:facebook": "https://www.facebook.com/azukivegetariano/",
        "delivery": "yes",
        "diet:vegan": "yes",
        "name": "Azuki",
        "opening_hours": "Mo 9:30-13:30",
        "phone": "+506 2240 8803",
        "takeaway": "only"
      },
      "geometry": {
        "type": "Point",
        "coordinates": [
          -84.0755898,
          9.9618626
        ]
      },
      "id": "node/4621300234"
    },
    {
      "type": "Feature",
      "properties": {
        "@id": "node/4885808740",
        "amenity": "restaurant",
        "capacity": "25",
        "name": "Piso de Tierra"
      },
      "geometry": {
        "type": "Point",
        "coordinates": [
          -84.0787978,
          9.9495741
        ]
      },
      "id": "node/4885808740"
    },
    {
      "type": "Feature",
      "properties": {
        "@id": "node/4887956226",
        "addr:city": "León XIII",
        "addr:postcode": "10107",
        "addr:street": "Avenida 51",
        "name": "Licorera, la Primavera.",
        "opening_hours": "24/7",
        "shop": "alcohol"
      },
      "geometry": {
        "type": "Point",
        "coordinates": [
          -84.0964984,
          9.9583374
        ]
      },
      "id": "node/4887956226"
    },
    {
      "type": "Feature",
      "properties": {
        "@id": "node/4887966080",
        "addr:city": "Colima",
        "addr:street": "Avenida 51",
        "name": "Ferretería Herrera.",
        "opening_hours": "Mo-Sa 08:00-20:00",
        "shop": "hardware"
      },
      "geometry": {
        "type": "Point",
        "coordinates": [
          -84.0893681,
          9.9557894
        ]
      },
      "id": "node/4887966080"
    },
    {
      "type": "Feature",
      "properties": {
        "@id": "node/4887971432",
        "addr:city": "Reinas",
        "addr:street": "Avenida 51",
        "amenity": "restaurant",
        "capacity": "30",
        "name": "Autopollo-Burguesa",
        "opening_hours": "Mo-Sa 08:00-20:00",
        "smoking": "outside",
        "takeaway": "yes"
      },
      "geometry": {
        "type": "Point",
        "coordinates": [
          -84.0907026,
          9.9561941
        ]
      },
      "id": "node/4887971432"
    },
    {
      "type": "Feature",
      "properties": {
        "@id": "node/4888020726",
        "addr:city": "León XIII",
        "addr:postcode": "11304",
        "addr:street": "Transversal 40",
        "amenity": "clinic",
        "healthcare": "clinic",
        "name": "Ebais León XIII",
        "opening_hours": "Mo-Fr 08:00-17:00",
        "operator": "CCSS",
        "operator:type": "public",
        "operator:wikidata": "Q5174896"
      },
      "geometry": {
        "type": "Point",
        "coordinates": [
          -84.0976138,
          9.9575379
        ]
      },
      "id": "node/4888020726"
    },
    {
      "type": "Feature",
      "properties": {
        "@id": "node/4888020731",
        "addr:city": "Colima",
        "addr:postcode": "11305",
        "addr:street": "Calle 22",
        "name": "Autorrepuestos REMAQ",
        "opening_hours": "Mo-Su 09:00-21:00",
        "shop": "car_parts"
      },
      "geometry": {
        "type": "Point",
        "coordinates": [
          -84.0886317,
          9.9529856
        ]
      },
      "id": "node/4888020731"
    },
    {
      "type": "Feature",
      "properties": {
        "@id": "node/5065245922",
        "addr:city": "San Juan",
        "addr:street": "Calle 17",
        "amenity": "place_of_worship",
        "name": "Iglesia Presbiteriana Corena de Costa Rica",
        "name:es": "Iglesia presbiteriana corena de costa rica",
        "name:ko": "코스타리카 한인교회(해외한인장로회)",
        "phone": "22408585",
        "website": "http://cafe.daum.net/korchurch"
      },
      "geometry": {
        "type": "Point",
        "coordinates": [
          -84.0723175,
          9.9660412
        ]
      },
      "id": "node/5065245922"
    },
    {
      "type": "Feature",
      "properties": {
        "@id": "node/5127257356",
        "amenity": "cafe",
        "name": "Las Delicias;Solucell",
        "opening_hours": "Mo-Fr 08:00-19:00, 09:00-18:00; Sa, Su 08:30-18:00",
        "phone": "+50622412914",
        "shop": "electronics",
        "website": "http://lasdeliciascr.com"
      },
      "geometry": {
        "type": "Point",
        "coordinates": [
          -84.0778247,
          9.9584578
        ]
      },
      "id": "node/5127257356"
    },
    {
      "type": "Feature",
      "properties": {
        "@id": "node/5138132024",
        "amenity": "bar",
        "name": "Tejas Bar"
      },
      "geometry": {
        "type": "Point",
        "coordinates": [
          -84.0817002,
          9.9614125
        ]
      },
      "id": "node/5138132024"
    },
    {
      "type": "Feature",
      "properties": {
        "@id": "node/5191410897",
        "addr:city": "San Juan",
        "addr:country": "CR",
        "amenity": "dentist",
        "contact:facebook": "https://es-la.facebook.com/centrodeortodonciasanchezalfaro/",
        "healthcare": "dentist",
        "name": "Centro de Ortodoncia Sánchez & Alfaro",
        "phone": "+506 2236 8090, 2236 8020"
      },
      "geometry": {
        "type": "Point",
        "coordinates": [
          -84.0790092,
          9.9589717
        ]
      },
      "id": "node/5191410897"
    },
    {
      "type": "Feature",
      "properties": {
        "@id": "node/5255264821",
        "addr:street": "Calle Central",
        "amenity": "restaurant",
        "cuisine": "pizza",
        "internet_access": "wlan",
        "name": "Habana Pizza",
        "opening_hours": "Tu-Su 12:00-22:00",
        "phone": "87831497"
      },
      "geometry": {
        "type": "Point",
        "coordinates": [
          -84.078634,
          9.9565874
        ]
      },
      "id": "node/5255264821"
    },
    {
      "type": "Feature",
      "properties": {
        "@id": "node/5305200228",
        "addr:housenumber": "Centro comercial El Punto",
        "name": "La Macro Tibás",
        "opening_hours": "Mo-Fr 08:00-17:00",
        "phone": "(+506) 2240-3248",
        "shop": "nutrition_supplements"
      },
      "geometry": {
        "type": "Point",
        "coordinates": [
          -84.0786266,
          9.9625584
        ]
      },
      "id": "node/5305200228"
    },
    {
      "type": "Feature",
      "properties": {
        "@id": "node/5305209079",
        "name": "Pañalera \"El Cubano\"",
        "shop": "greengrocer"
      },
      "geometry": {
        "type": "Point",
        "coordinates": [
          -84.0764292,
          9.9630623
        ]
      },
      "id": "node/5305209079"
    },
    {
      "type": "Feature",
      "properties": {
        "@id": "node/5322846290",
        "amenity": "fountain"
      },
      "geometry": {
        "type": "Point",
        "coordinates": [
          -84.0787691,
          9.9619047
        ]
      },
      "id": "node/5322846290"
    },
    {
      "type": "Feature",
      "properties": {
        "@id": "node/5341679473",
        "access": "private",
        "leisure": "playground",
        "name": "Playground #1 del Resid, Norte"
      },
      "geometry": {
        "type": "Point",
        "coordinates": [
          -84.0741637,
          9.9578628
        ]
      },
      "id": "node/5341679473"
    },
    {
      "type": "Feature",
      "properties": {
        "@id": "node/5650102508",
        "addr:city": "San José",
        "addr:country": "CR",
        "addr:street": "Avenida 49",
        "amenity": "community_centre",
        "name": "Salón Comunal"
      },
      "geometry": {
        "type": "Point",
        "coordinates": [
          -84.0978801,
          9.9581433
        ]
      },
      "id": "node/5650102508"
    },
    {
      "type": "Feature",
      "properties": {
        "@id": "node/5716207322",
        "amenity": "restaurant",
        "cuisine": "peruvian;pasta;fish",
        "email": "erasmo.42@hotmail.com",
        "name": "Erasmo",
        "opening_hours": "Mo-Su 09:00-23:00",
        "outdoor_seating": "no",
        "payment:cash": "yes",
        "payment:coins": "yes",
        "payment:credit_cards": "yes",
        "payment:debit_cards": "yes",
        "phone": "2236-0824",
        "smoking": "no",
        "takeaway": "yes"
      },
      "geometry": {
        "type": "Point",
        "coordinates": [
          -84.067247,
          9.9555573
        ]
      },
      "id": "node/5716207322"
    },
    {
      "type": "Feature",
      "properties": {
        "@id": "node/6444262985",
        "amenity": "restaurant",
        "name": "Sodita San Juan"
      },
      "geometry": {
        "type": "Point",
        "coordinates": [
          -84.0818551,
          9.9624903
        ]
      },
      "id": "node/6444262985"
    },
    {
      "type": "Feature",
      "properties": {
        "@id": "node/6632077797",
        "addr:city": "Cinco Esquinas",
        "amenity": "place_of_worship",
        "denomination": "catholic",
        "name": "Iglesia de Copey",
        "religion": "christian"
      },
      "geometry": {
        "type": "Point",
        "coordinates": [
          -84.0879106,
          9.9479733
        ]
      },
      "id": "node/6632077797"
    },
    {
      "type": "Feature",
      "properties": {
        "@id": "node/6639549185",
        "name": "Guacamaya",
        "shop": "car_parts"
      },
      "geometry": {
        "type": "Point",
        "coordinates": [
          -84.0822621,
          9.952911
        ]
      },
      "id": "node/6639549185"
    },
    {
      "type": "Feature",
      "properties": {
        "@id": "node/6669972143",
        "amenity": "parking_entrance"
      },
      "geometry": {
        "type": "Point",
        "coordinates": [
          -84.0790454,
          9.9513782
        ]
      },
      "id": "node/6669972143"
    },
    {
      "type": "Feature",
      "properties": {
        "@id": "node/6669972150",
        "amenity": "parking_entrance"
      },
      "geometry": {
        "type": "Point",
        "coordinates": [
          -84.0799395,
          9.9507508
        ]
      },
      "id": "node/6669972150"
    },
    {
      "type": "Feature",
      "properties": {
        "@id": "node/6685134424",
        "brand": "Donde James",
        "name": "Moto Dynasty Tibás",
        "opening_hours": "Mo-Sa 08:00-18:00",
        "payment:american_express": "yes",
        "payment:cash": "yes",
        "payment:credit_cards": "yes",
        "payment:debit_cards": "yes",
        "shop": "motorcycle"
      },
      "geometry": {
        "type": "Point",
        "coordinates": [
          -84.0779905,
          9.9597556
        ]
      },
      "id": "node/6685134424"
    },
    {
      "type": "Feature",
      "properties": {
        "@id": "node/6715016279",
        "addr:street": "Diagonal 45, Avenida 45",
        "amenity": "cafe",
        "internet_access": "yes",
        "name": "Café República",
        "opening_hours": "Mo-Fr 12:00-19:00; Sa 14:00-19:00",
        "phone": "(+506) 2101-9416",
        "website": "https://facebook.com/caferepublicacr"
      },
      "geometry": {
        "type": "Point",
        "coordinates": [
          -84.067562,
          9.9553877
        ]
      },
      "id": "node/6715016279"
    },
    {
      "type": "Feature",
      "properties": {
        "@id": "node/6919452785",
        "addr:street": "Barrio Virginia",
        "amenity": "fast_food",
        "contact:facebook": "https://www.facebook.com/fotispizza/",
        "contact:instagram": "https://www.instagram.com/fotispizza/",
        "contact:phone": "+506 4030 0887",
        "contact:website": "https://fotispizza.com/",
        "cuisine": "pizza;italian",
        "name": "Foti's Pizza",
        "name:en": "Foti's Pizza",
        "name:es": "Foti's Pizza",
        "opening_hours": "24/7"
      },
      "geometry": {
        "type": "Point",
        "coordinates": [
          -84.0582887,
          9.9671739
        ]
      },
      "id": "node/6919452785"
    },
    {
      "type": "Feature",
      "properties": {
        "@id": "node/7020473524",
        "name": "TICA A145",
        "shop": "wholesale"
      },
      "geometry": {
        "type": "Point",
        "coordinates": [
          -84.0921811,
          9.9530889
        ]
      },
      "id": "node/7020473524"
    },
    {
      "type": "Feature",
      "properties": {
        "@id": "node/7246493243",
        "amenity": "restaurant",
        "name": "Soda Pilar",
        "phone": "+506-2297-3789",
        "website": "https://www.facebook.com/Soda-Pilar-1932398747079925/"
      },
      "geometry": {
        "type": "Point",
        "coordinates": [
          -84.0851177,
          9.9560417
        ]
      },
      "id": "node/7246493243"
    },
    {
      "type": "Feature",
      "properties": {
        "@id": "node/7246493245",
        "description": "Tapicería. Upholstery.",
        "name": "Tapicería Makena",
        "shop": "furniture",
        "source": "local knowledge"
      },
      "geometry": {
        "type": "Point",
        "coordinates": [
          -84.0850901,
          9.9560458
        ]
      },
      "id": "node/7246493245"
    },
    {
      "type": "Feature",
      "properties": {
        "@id": "node/7333704104",
        "leisure": "playground",
        "name": "Playground #2 del Resid.Norte"
      },
      "geometry": {
        "type": "Point",
        "coordinates": [
          -84.0742091,
          9.957951
        ]
      },
      "id": "node/7333704104"
    },
    {
      "type": "Feature",
      "properties": {
        "@id": "node/7612986370",
        "addr:city": "San Juan de Tibás",
        "addr:housenumber": "Centro Comercial Expresso Tibas,Lolcal num 28, contiguo a las escaleras",
        "name": "Goodlife Tibas",
        "opening_hours": "Horario de Lunes a Viernes de 10am a 7pm, Sabados de 10am a 5pm, Domingos Cerrado",
        "opening_hours:covid19": "Sabados de 10am a 5pm, Domingos Cerrado",
        "operator": "4082-9130",
        "shop": "nutrition_supplements",
        "wheelchair": "yes"
      },
      "geometry": {
        "type": "Point",
        "coordinates": [
          -84.0821424,
          9.9530448
        ]
      },
      "id": "node/7612986370"
    },
    {
      "type": "Feature",
      "properties": {
        "@id": "node/7811038170",
        "addr:street": "Avenida 63, Calle 29",
        "amenity": "cafe",
        "contact:facebook": "https://facebook.com/Binariocafeypan",
        "description": "Somos un espacio donde nos gusta preparar buena comida, queriendo destacar en nuestros productos de café y pan de masa madre.",
        "email": "binariocyp@gmail.com",
        "name": "Binario Café y Pan",
        "opening_hours": "Tu-Fr 09:00-18:00; Sa 09:00-17:45",
        "phone": "+50622410017",
        "website": "https://binariocyp.com"
      },
      "geometry": {
        "type": "Point",
        "coordinates": [
          -84.0655144,
          9.962104
        ]
      },
      "id": "node/7811038170"
    },
    {
      "type": "Feature",
      "properties": {
        "@id": "node/8636315317",
        "name": "Electrónica jured",
        "shop": "electronics"
      },
      "geometry": {
        "type": "Point",
        "coordinates": [
          -84.0782317,
          9.9582232
        ]
      },
      "id": "node/8636315317"
    },
    {
      "type": "Feature",
      "properties": {
        "@id": "node/8784234817",
        "amenity": "restaurant",
        "name": "Golden Sugar"
      },
      "geometry": {
        "type": "Point",
        "coordinates": [
          -84.0784258,
          9.9556636
        ]
      },
      "id": "node/8784234817"
    },
    {
      "type": "Feature",
      "properties": {
        "@id": "node/9445137433",
        "addr:city": "San Juan",
        "addr:street": "Calle Central",
        "amenity": "post_office",
        "name": "Correos de Costa Rica - Tibás",
        "operator": "Correos de Costa Rica",
        "operator:wikidata": "Q5172894",
        "operator:wikipedia": "en:Correos de Costa Rica"
      },
      "geometry": {
        "type": "Point",
        "coordinates": [
          -84.0785722,
          9.9609654
        ]
      },
      "id": "node/9445137433"
    },
    {
      "type": "Feature",
      "properties": {
        "@id": "node/9454326964",
        "name": "Tramito FontaSola",
        "opening_hours": "Mo-Th 07:00-18:00; Fr 07:00-17:00",
        "phone": "(+506) 8878-1606",
        "shop": "greengrocer",
        "website": "https://tramitofontasola.com",
        "wheelchair": "yes"
      },
      "geometry": {
        "type": "Point",
        "coordinates": [
          -84.0766726,
          9.9606679
        ]
      },
      "id": "node/9454326964"
    },
    {
      "type": "Feature",
      "properties": {
        "@id": "node/9547767299",
        "addr:city": "Anselmo Llorente",
        "addr:housenumber": "53",
        "addr:postcode": "11303",
        "addr:street": "Avenida 53",
        "amenity": "language_school",
        "language:en": "yes",
        "language:es": "yes",
        "name": "Polytechnical Center Virtual",
        "opening_hours": "Mo-Fr 08:00-17:00",
        "operator": "Polytechnical Center",
        "operator:type": "business",
        "website": "https://www.polytechnical-center.com/"
      },
      "geometry": {
        "type": "Point",
        "coordinates": [
          -84.0733324,
          9.9582655
        ]
      },
      "id": "node/9547767299"
    },
    {
      "type": "Feature",
      "properties": {
        "@id": "node/9610200973",
        "amenity": "parking"
      },
      "geometry": {
        "type": "Point",
        "coordinates": [
          -84.0863274,
          9.9657682
        ]
      },
      "id": "node/9610200973"
    },
    {
      "type": "Feature",
      "properties": {
        "@id": "node/9610200974",
        "amenity": "parking"
      },
      "geometry": {
        "type": "Point",
        "coordinates": [
          -84.086165,
          9.9659844
        ]
      },
      "id": "node/9610200974"
    },
    {
      "type": "Feature",
      "properties": {
        "@id": "node/9864977845",
        "addr:city": "San Juan",
        "addr:street": "Avenida 43",
        "name": "Fresh Market",
        "shop": "convenience"
      },
      "geometry": {
        "type": "Point",
        "coordinates": [
          -84.0801708,
          9.9537397
        ]
      },
      "id": "node/9864977845"
    },
    {
      "type": "Feature",
      "properties": {
        "@id": "node/9896182704",
        "addr:city": "Uruca",
        "addr:street": "Calle 22",
        "name": "El Fiebre",
        "opening_hours": "Mo-Fr 08:00-18:00",
        "phone": "84285143",
        "service:vehicle:car_repair": "yes",
        "service:vehicle:parts": "yes",
        "shop": "car_repair"
      },
      "geometry": {
        "type": "Point",
        "coordinates": [
          -84.0888217,
          9.9466511
        ]
      },
      "id": "node/9896182704"
    },
    {
      "type": "Feature",
      "properties": {
        "@id": "node/11036563308",
        "addr:city": "Tibás",
        "addr:full": "Del estadio Ricardo Saprissa Aymá, costado norte",
        "addr:housenumber": "69",
        "addr:postcode": "11301",
        "addr:street": "Avenida",
        "amenity": "marketplace",
        "name": "Feria del agricultor Tibás",
        "opening_hours": "Sa 05:00-14:00",
        "operator": "Centro Agrícola Cantonal San Luis Santo Domingo",
        "phone": "+506 2268-4418"
      },
      "geometry": {
        "type": "Point",
        "coordinates": [
          -84.0766152,
          9.9646229
        ]
      },
      "id": "node/11036563308"
    },
    {
      "type": "Feature",
      "properties": {
        "@id": "node/11168001277",
        "amenity": "restaurant",
        "cuisine": "coffee_shop;traditional;burger",
        "name": "Cibus Restaurante y Cafeteria",
        "opening_hours": "Mo-Su 07:00-21:00",
        "phone": "+50689524287",
        "website": "https://www.instagram.com/cibus506/"
      },
      "geometry": {
        "type": "Point",
        "coordinates": [
          -84.065757,
          9.9574264
        ]
      },
      "id": "node/11168001277"
    },
    {
      "type": "Feature",
      "properties": {
        "@id": "node/12588833926",
        "name": "Alimercado",
        "shop": "supermarket"
      },
      "geometry": {
        "type": "Point",
        "coordinates": [
          -84.0839092,
          9.9470051
        ]
      },
      "id": "node/12588833926"
    },
    {
      "type": "Feature",
      "properties": {
        "@id": "node/12692104316",
        "name": "Electro Maz (Maz Tibas)",
        "phone": "40002997",
        "shop": "hardware"
      },
      "geometry": {
        "type": "Point",
        "coordinates": [
          -84.08651,
          9.9539072
        ]
      },
      "id": "node/12692104316"
    },
    {
      "type": "Feature",
      "properties": {
        "@id": "node/12833498286",
        "amenity": "atm",
        "contact:email": "solucion@promerica.fi.cr",
        "contact:phone": "+506 2519 8090",
        "contact:website": "https://www.promerica.fi.cr",
        "opening_hours": "Mo-Su 07:00-21:00",
        "operator": "Banco Promerica de Costa Rica S.A."
      },
      "geometry": {
        "type": "Point",
        "coordinates": [
          -84.0817783,
          9.9526776
        ]
      },
      "id": "node/12833498286"
    },
    {
      "type": "Feature",
      "properties": {
        "@id": "node/12882453501",
        "amenity": "fast_food",
        "contact:facebook": "mechadascr",
        "cuisine": "mexican",
        "email": "info@mechadas.com",
        "name": "Mechadas Tibas",
        "opening_hours": "Mo-Th 11:00-21:00; Fr 11:00-22:00; Sa 00:00-22:00; Su 17:00-22:00",
        "phone": "86241766",
        "self_service": "no",
        "website": "https://mechadas.com/"
      },
      "geometry": {
        "type": "Point",
        "coordinates": [
          -84.0785787,
          9.9478458
        ]
      },
      "id": "node/12882453501"
    }
  ]
}